[
  {"nombre":"A Coruña","provincia":"A Coruña","latitud":43.3623,"longitud":-8.4115},
  {"nombre":"Albacete","provincia":"Albacete","latitud":38.9942,"longitud":-1.8585},
  {"nombre":"Alicante","provincia":"Alicante","latitud":38.3452,"longitud":-0.4810},
  {"nombre":"Almería","provincia":"Almería","latitud":36.8340,"longitud":-2.4637},
  {"nombre":"Ávila","provincia":"Ávila","latitud":40.6564,"longitud":-4.6813},
  {"nombre":"Badajoz","provincia":"Badajoz","latitud":38.8794,"longitud":-6.9707},
  {"nombre":"Barcelona","provincia":"Barcelona","latitud":41.3851,"longitud":2.1734},
  {"nombre":"Bilbao","provincia":"Bizkaia","latitud":43.2630,"longitud":-2.9350},
  {"nombre":"Burgos","provincia":"Burgos","latitud":42.3439,"longitud":-3.6969},
  {"nombre":"Cáceres","provincia":"Cáceres","latitud":39.4762,"longitud":-6.3708},
  {"nombre":"Cádiz","provincia":"Cádiz","latitud":36.5271,"longitud":-6.2886},
  {"nombre":"Castellón de la Plana","provincia":"Castellón","latitud":39.9864,"longitud":-0.0513},
  {"nombre":"Ciudad Real","provincia":"Ciudad Real","latitud":38.9863,"longitud":-3.9273},
  {"nombre":"Córdoba","provincia":"Córdoba","latitud":37.8882,"longitud":-4.7794},
  {"nombre":"Cuenca","provincia":"Cuenca","latitud":40.0704,"longitud":-2.1374},
  {"nombre":"Donostia-San Sebastián","provincia":"Gipuzkoa","latitud":43.3183,"longitud":-1.9812},
  {"nombre":"Girona","provincia":"Girona","latitud":41.9794,"longitud":2.8214},
  {"nombre":"Granada","provincia":"Granada","latitud":37.1773,"longitud":-3.5986},
  {"nombre":"Guadalajara","provincia":"Guadalajara","latitud":40.6320,"longitud":-3.1669},
  {"nombre":"Huelva","provincia":"Huelva","latitud":37.2614,"longitud":-6.9447},
  {"nombre":"Huesca","provincia":"Huesca","latitud":42.1362,"longitud":-0.4087},
  {"nombre":"Jaén","provincia":"Jaén","latitud":37.7796,"longitud":-3.7849},
  {"nombre":"Las Palmas de Gran Canaria","provincia":"Las Palmas","latitud":28.1235,"longitud":-15.4363},
  {"nombre":"León","provincia":"León","latitud":42.5987,"longitud":-5.5671},
  {"nombre":"Lleida","provincia":"Lleida","latitud":41.6176,"longitud":0.6200},
  {"nombre":"Logroño","provincia":"La Rioja","latitud":42.4627,"longitud":-2.4449},
  {"nombre":"Lugo","provincia":"Lugo","latitud":43.0097,"longitud":-7.5560},
  {"nombre":"Madrid","provincia":"Madrid","latitud":40.4168,"longitud":-3.7038},
  {"nombre":"Málaga","provincia":"Málaga","latitud":36.7213,"longitud":-4.4214},
  {"nombre":"Murcia","provincia":"Murcia","latitud":37.9922,"longitud":-1.1307},
  {"nombre":"Ourense","provincia":"Ourense","latitud":42.3358,"longitud":-7.8639},
  {"nombre":"Oviedo","provincia":"Asturias","latitud":43.3614,"longitud":-5.8593},
  {"nombre":"Palencia","provincia":"Palencia","latitud":42.0097,"longitud":-4.5281},
  {"nombre":"Palma","provincia":"Illes Balears","latitud":39.5696,"longitud":2.6502},
  {"nombre":"Pamplona","provincia":"Navarra","latitud":42.8125,"longitud":-1.6458},
  {"nombre":"Pontevedra","provincia":"Pontevedra","latitud":42.4338,"longitud":-8.6476},
  {"nombre":"Salamanca","provincia":"Salamanca","latitud":40.9701,"longitud":-5.6635},
  {"nombre":"Santa Cruz de Tenerife","provincia":"Santa Cruz de Tenerife","latitud":28.4636,"longitud":-16.2518},
  {"nombre":"Santander","provincia":"Cantabria","latitud":43.4623,"longitud":-3.8099},
  {"nombre":"Segovia","provincia":"Segovia","latitud":40.9429,"longitud":-4.1088},
  {"nombre":"Sevilla","provincia":"Sevilla","latitud":37.3891,"longitud":-5.9845},
  {"nombre":"Soria","provincia":"Soria","latitud":41.7636,"longitud":-2.4649},
  {"nombre":"Tarragona","provincia":"Tarragona","latitud":41.1189,"longitud":1.2445},
  {"nombre":"Teruel","provincia":"Teruel","latitud":40.3450,"longitud":-1.1069},
  {"nombre":"Toledo","provincia":"Toledo","latitud":39.8628,"longitud":-4.0273},
  {"nombre":"Valencia","provincia":"Valencia","latitud":39.4699,"longitud":-0.3763},
  {"nombre":"Valladolid","provincia":"Valladolid","latitud":41.6523,"longitud":-4.7245},
  {"nombre":"Vitoria-Gasteiz","provincia":"Álava","latitud":42.8467,"longitud":-2.6716},
  {"nombre":"Zamora","provincia":"Zamora","latitud":41.5035,"longitud":-5.7445},
  {"nombre":"Zaragoza","provincia":"Zaragoza","latitud":41.6488,"longitud":-0.8891},
  {"nombre":"Ceuta","provincia":"Ceuta","latitud":35.8894,"longitud":-5.3213},
  {"nombre":"Melilla","provincia":"Melilla","latitud":35.2923,"longitud":-2.9381}
]